{
  "baseline": 0,
  "locations": [
    { "name": "Hangzhou, China", "lat": 30.2741, "lng": 120.1551 },
    { "name": "Beijing, China", "lat": 39.9042, "lng": 116.4074 },
    { "name": "Shanghai, China", "lat": 31.2304, "lng": 121.4737 },
    { "name": "Shenzhen, China", "lat": 22.5431, "lng": 114.0579 },
    { "name": "Singapore", "lat": 1.3521, "lng": 103.8198 },
    { "name": "Tokyo, Japan", "lat": 35.6762, "lng": 139.6503 },
    { "name": "Seoul, South Korea", "lat": 37.5665, "lng": 126.978 },
    { "name": "London, UK", "lat": 51.5074, "lng": -0.1278 },
    { "name": "Paris, France", "lat": 48.8566, "lng": 2.3522 },
    { "name": "New York, USA", "lat": 40.7128, "lng": -74.006 },
    { "name": "San Francisco, USA", "lat": 37.7749, "lng": -122.4194 },
    { "name": "Los Angeles, USA", "lat": 34.0522, "lng": -118.2437 },
    { "name": "Sydney, Australia", "lat": -33.8688, "lng": 151.2093 }
  ]
}
